[{"Category": "trouble à l'ordre publique", "title": "Exhibition sexuelle", "location": {"city": "Douala", "region": "nord-ouest", "country": "Cameroun"}, "start_date": "20/01/2021", "declared_at": "20/01/2021"}, {"Category": "Destruction/Dégradation d'installations électriques", "title": "Explosion transformateur à Oyomabang", "location": {"city": "Bafoussam", "region": "adamawa", "country": "Cameroun"}, "start_date": "06/11/2020", "declared_at": "08/11/2020"}, {"Category": "Accident circulation", "title": "accident de circulation à obala", "location": {"city": "Mbandjock", "region": "nord", "country": "Cameroun"}, "start_date": "28/05/2020", "declared_at": "30/05/2020"}, {"Category": "Destruction/Dégradation d'installation d'eaux", "title": "Efondrement d'un chateau d'eau à Ngoakele", "location": {"city": "Batibo", "region": "sud", "country": "Cameroun"}, "start_date": "05/12/2020", "declared_at": "07/12/2020"}, {"Category": "Meutre", "title": "L’homicide", "location": {"city": "Blangoua", "region": "sud", "country": "Cameroun"}, "start_date": "07/07/2020", "declared_at": "07/07/2020"}, {"Category": "Conflits armés", "title": "Taillade à mokolo", "location": {"city": "Akonolinga", "region": "ouest", "country": "Cameroun"}, "start_date": "31/05/2020", "declared_at": "31/05/2020"}, {"Category": "Destruction/Dégradation d'installations électriques", "title": "Haute tension écrouller au centre ville", "location": {"city": "Gazawa", "region": "sud", "country": "Cameroun"}, "start_date": "18/02/2020", "declared_at": "20/02/2020"}, {"Category": "Violence contre civils", "title": "17 people were killed in protests following the declaration of independence", "location": {"city": "Ngaoundéré", "region": "ouest", "country": "Cameroun"}, "start_date": "02/01/2020", "declared_at": "04/01/2020"}, {"Category": "Agression", "title": "agression à main armé", "location": {"city": "Ebolowa", "region": "adamawa", "country": "Cameroun"}, "start_date": "18/06/2020", "declared_at": "18/06/2020"}, {"Category": "Protestations", "title": "17 people were killed in protests following the declaration of independence", "location": {"city": "Yaoundé", "region": "nord", "country": "Cameroun"}, "start_date": "23/03/2020", "declared_at": "23/03/2020"}, {"Category": "Vols", "title": "vol à main armée", "location": {"city": "Mbouda", "region": "sud", "country": "Cameroun"}, "start_date": "18/12/2020", "declared_at": "18/12/2020"}, {"Category": "Agression", "title": "viol sur mineur", "location": {"city": "Abong-Mbang", "region": "nord", "country": "Cameroun"}, "start_date": "03/02/2021", "declared_at": "04/02/2021"}, {"Category": "Protestations", "title": "Protestation des étudiants pour leur PBs", "location": {"city": "Foumbot", "region": "ouest", "country": "Cameroun"}, "start_date": "26/06/2020", "declared_at": "27/06/2020"}, {"Category": "Accident circulation", "title": "Tenor's road accident ", "location": {"city": "Kumba", "region": "nord-ouest", "country": "Cameroun"}, "start_date": "20/01/2021", "declared_at": "21/01/2021"}, {"Category": "Agression", "title": "viol sur mineur", "location": {"city": "Mbanga", "region": "littoral", "country": "Cameroun"}, "start_date": "04/02/2021", "declared_at": "06/02/2021"}, {"Category": "trouble à l'ordre publique", "title": "Voyeurisme", "location": {"city": "Maroua", "region": "adamawa", "country": "Cameroun"}, "start_date": "17/08/2020", "declared_at": "19/08/2020"}, {"Category": "Vols", "title": "vol à mokolo", "location": {"city": "Maroua", "region": "est", "country": "Cameroun"}, "start_date": "28/01/2021", "declared_at": "30/01/2021"}, {"Category": "Meutre", "title": "Suicide de la fille du colonel", "location": {"city": "Meiganga", "region": "nord", "country": "Cameroun"}, "start_date": "30/01/2020", "declared_at": "31/01/2020"}, {"Category": "Destruction/Dégradation d'installations électriques", "title": "Haute tension écrouller au centre ville", "location": {"city": "Ndop", "region": "sud", "country": "Cameroun"}, "start_date": "21/01/2021", "declared_at": "22/01/2021"}, {"Category": "Destruction/Dégradation d'installation d'eaux", "title": "Efondrement d'un chateau d'eau à Ngoakele", "location": {"city": "Guider", "region": "littoral", "country": "Cameroun"}, "start_date": "29/10/2020", "declared_at": "31/10/2020"}, {"Category": "Agression", "title": "viol sur mineur", "location": {"city": "Mora", "region": "nord", "country": "Cameroun"}, "start_date": "01/03/2020", "declared_at": "01/03/2020"}, {"Category": "trouble à l'ordre publique", "title": "Voyeurisme", "location": {"city": "Ngaoundal", "region": "sud-ouest", "country": "Cameroun"}, "start_date": "16/05/2020", "declared_at": "17/05/2020"}, {"Category": "trouble à l'ordre publique", "title": "Exhibition sexuelle", "location": {"city": "Banyo", "region": "sud", "country": "Cameroun"}, "start_date": "12/01/2021", "declared_at": "14/01/2021"}, {"Category": "Destruction/Dégradation d'installations électriques", "title": "Haute tension écrouller au centre ville", "location": {"city": "Tombel", "region": "littoral", "country": "Cameroun"}, "start_date": "28/08/2020", "declared_at": "30/08/2020"}, {"Category": "Incendie", "title": "Incendie volontaire", "location": {"city": "Tibati", "region": "sud", "country": "Cameroun"}, "start_date": "23/01/2020", "declared_at": "23/01/2020"}, {"Category": "Protestations", "title": "Protestation des étudiants pour leur PBs", "location": {"city": "Ndop", "region": "littoral", "country": "Cameroun"}, "start_date": "10/05/2020", "declared_at": "10/05/2020"}, {"Category": "Accident circulation", "title": "accident de circulation à ngoussou", "location": {"city": "Yokadouma", "region": "nord", "country": "Cameroun"}, "start_date": "11/05/2020", "declared_at": "13/05/2020"}, {"Category": "Destruction/Dégradation d'installation d'eaux", "title": "Efondrement d'un chateau d'eau à Ngoakele", "location": {"city": "Yokadouma", "region": "sud-ouest", "country": "Cameroun"}, "start_date": "31/03/2020", "declared_at": "01/04/2020"}, {"Category": "Violence contre civils", "title": "17 people were killed in protests following the declaration of independence", "location": {"city": "Koutaba", "region": "est", "country": "Cameroun"}, "start_date": "22/11/2020", "declared_at": "24/11/2020"}, {"Category": "Meutre", "title": "L’homicide", "location": {"city": "Eséka", "region": "nord", "country": "Cameroun"}, "start_date": "29/01/2021", "declared_at": "29/01/2021"}, {"Category": "Agression", "title": "viol sur mineur", "location": {"city": "Meiganga", "region": "littoral", "country": "Cameroun"}, "start_date": "18/09/2020", "declared_at": "18/09/2020"}, {"Category": "Explosions", "title": "Explosion d'un depot de gas Dvan", "location": {"city": "Sangmélima", "region": "sud-ouest", "country": "Cameroun"}, "start_date": "25/02/2021", "declared_at": "27/02/2021"}, {"Category": "Destruction/Dégradation d'installation d'eaux", "title": "Panne réseau d'eau", "location": {"city": "Gazawa", "region": "nord", "country": "Cameroun"}, "start_date": "26/03/2020", "declared_at": "28/03/2020"}, {"Category": "Explosions", "title": "Explosion bombe artisanale Nsam", "location": {"city": "Nkongsamba", "region": "est", "country": "Cameroun"}, "start_date": "14/07/2020", "declared_at": "15/07/2020"}, {"Category": "Vols", "title": "Vol a mains armées à Mvogada", "location": {"city": "Ngaoundéré", "region": "adamawa", "country": "Cameroun"}, "start_date": "18/10/2020", "declared_at": "20/10/2020"}, {"Category": "Explosions", "title": "Explosion bombe artisanale Nsam", "location": {"city": "Pitoa", "region": "extreme-nord", "country": "Cameroun"}, "start_date": "17/01/2021", "declared_at": "18/01/2021"}, {"Category": "Accident circulation", "title": "accident de circulation à ngoussou", "location": {"city": "Banyo", "region": "adamawa", "country": "Cameroun"}, "start_date": "18/02/2021", "declared_at": "19/02/2021"}, {"Category": "trouble à l'ordre publique", "title": "Exhibition sexuelle", "location": {"city": "Tiko", "region": "littoral", "country": "Cameroun"}, "start_date": "10/07/2020", "declared_at": "10/07/2020"}, {"Category": "Destruction/Dégradation d'installation d'eaux", "title": "Panne réseau d'eau", "location": {"city": "Bafang", "region": "extreme-nord", "country": "Cameroun"}, "start_date": "10/03/2021", "declared_at": "11/03/2021"}, {"Category": "Meutre", "title": "Suicide de la fille du colonel", "location": {"city": "Mbanga", "region": "sud-ouest", "country": "Cameroun"}, "start_date": "14/10/2020", "declared_at": "14/10/2020"}, {"Category": "Protestations", "title": "17 people were killed in protests following the declaration of independence", "location": {"city": "Muyuka", "region": "nord", "country": "Cameroun"}, "start_date": "11/01/2020", "declared_at": "12/01/2020"}, {"Category": "Meutre", "title": "L’homicide", "location": {"city": "Yabassi", "region": "littoral", "country": "Cameroun"}, "start_date": "13/05/2020", "declared_at": "13/05/2020"}, {"Category": "trouble à l'ordre publique", "title": "Voyeurisme", "location": {"city": "Dschang", "region": "est", "country": "Cameroun"}, "start_date": "18/03/2020", "declared_at": "18/03/2020"}, {"Category": "Conflits armés", "title": "Attaques térorriste Kumba", "location": {"city": "Bafia", "region": "centre", "country": "Cameroun"}, "start_date": "10/07/2020", "declared_at": "12/07/2020"}, {"Category": "Conflits armés", "title": "Attaques térorriste Kumba", "location": {"city": "Blangoua", "region": "nord", "country": "Cameroun"}, "start_date": "10/12/2020", "declared_at": "12/12/2020"}, {"Category": "Accident circulation", "title": "Tenor's road accident ", "location": {"city": "Kousséri", "region": "adamawa", "country": "Cameroun"}, "start_date": "08/06/2020", "declared_at": "09/06/2020"}, {"Category": "Vols", "title": "vol à main armée", "location": {"city": "Bafoussam", "region": "nord", "country": "Cameroun"}, "start_date": "24/07/2020", "declared_at": "26/07/2020"}, {"Category": "Destruction/Dégradation d'installation d'eaux", "title": "Panne réseau d'eau", "location": {"city": "Garoua-Boulaï", "region": "adamawa", "country": "Cameroun"}, "start_date": "23/05/2020", "declared_at": "23/05/2020"}, {"Category": "Agression", "title": "agression à main armé", "location": {"city": "Maroua", "region": "centre", "country": "Cameroun"}, "start_date": "14/11/2020", "declared_at": "14/11/2020"}, {"Category": "trouble à l'ordre publique", "title": "Voyeurisme", "location": {"city": "Mamfé", "region": "ouest", "country": "Cameroun"}, "start_date": "06/09/2020", "declared_at": "07/09/2020"}, {"Category": "Incendie", "title": "Incendie volontaire", "location": {"city": "Makénéné", "region": "littoral", "country": "Cameroun"}, "start_date": "08/03/2021", "declared_at": "09/03/2021"}, {"Category": "Incendie", "title": "Incendie volontaire", "location": {"city": "Ebolowa", "region": "ouest", "country": "Cameroun"}, "start_date": "18/05/2020", "declared_at": "19/05/2020"}, {"Category": "Destruction/Dégradation d'installations électriques", "title": "Explosion transformateur à Oyomabang", "location": {"city": "Garoua-Boulaï", "region": "adamawa", "country": "Cameroun"}, "start_date": "03/09/2020", "declared_at": "04/09/2020"}, {"Category": "Destruction/Dégradation d'installation d'eaux", "title": "Efondrement d'un chateau d'eau à Ngoakele", "location": {"city": "Mbouda", "region": "sud", "country": "Cameroun"}, "start_date": "12/09/2020", "declared_at": "14/09/2020"}, {"Category": "Vols", "title": "Vol a mains armées à Mvogada", "location": {"city": "Manjo", "region": "adamawa", "country": "Cameroun"}, "start_date": "14/11/2020", "declared_at": "15/11/2020"}, {"Category": "Vols", "title": "Vol a mains armées à Mvogada", "location": {"city": "Yagoua", "region": "nord", "country": "Cameroun"}, "start_date": "22/03/2020", "declared_at": "24/03/2020"}, {"Category": "Incendie", "title": "Incendie volontaire marché central", "location": {"city": "Batibo", "region": "centre", "country": "Cameroun"}, "start_date": "01/09/2020", "declared_at": "03/09/2020"}, {"Category": "Agression", "title": "agression à main armé", "location": {"city": "Bertoua", "region": "ouest", "country": "Cameroun"}, "start_date": "17/03/2020", "declared_at": "18/03/2020"}, {"Category": "Conflits armés", "title": "Attaques térorriste Kumba", "location": {"city": "Ngaoundéré", "region": "adamawa", "country": "Cameroun"}, "start_date": "01/03/2020", "declared_at": "01/03/2020"}, {"Category": "Destruction/Dégradation d'installations électriques", "title": "Pauteau électrique éfondrer par un camion", "location": {"city": "Mbouda", "region": "adamawa", "country": "Cameroun"}, "start_date": "25/03/2020", "declared_at": "27/03/2020"}, {"Category": "Destruction/Dégradation d'installations électriques", "title": "Pauteau électrique éfondrer par un camion", "location": {"city": "Fundong", "region": "sud", "country": "Cameroun"}, "start_date": "12/07/2020", "declared_at": "14/07/2020"}, {"Category": "Incendie", "title": "Incendie volontaire marché central", "location": {"city": "Koutaba", "region": "nord-ouest", "country": "Cameroun"}, "start_date": "17/10/2020", "declared_at": "17/10/2020"}, {"Category": "Explosions", "title": "Explosion d'un depot de gas Dvan", "location": {"city": "Bangangté", "region": "littoral", "country": "Cameroun"}, "start_date": "16/01/2021", "declared_at": "16/01/2021"}, {"Category": "Destruction/Dégradation d'installations électriques", "title": "Haute tension écrouller au centre ville", "location": {"city": "Fundong", "region": "adamawa", "country": "Cameroun"}, "start_date": "23/09/2020", "declared_at": "24/09/2020"}, {"Category": "Violence contre civils", "title": "Député molester par des policiers", "location": {"city": "Mbandjock", "region": "littoral", "country": "Cameroun"}, "start_date": "12/05/2020", "declared_at": "12/05/2020"}, {"Category": "Accident circulation", "title": "Tenor's road accident ", "location": {"city": "Bafang", "region": "centre", "country": "Cameroun"}, "start_date": "11/04/2020", "declared_at": "12/04/2020"}, {"Category": "trouble à l'ordre publique", "title": "Voyeurisme", "location": {"city": "Mamfé", "region": "sud", "country": "Cameroun"}, "start_date": "04/01/2020", "declared_at": "04/01/2020"}, {"Category": "Accident circulation", "title": "accident de circulation à ngoussou", "location": {"city": "Kribi", "region": "nord-ouest", "country": "Cameroun"}, "start_date": "29/03/2021", "declared_at": "30/03/2021"}, {"Category": "Incendie", "title": "Incendie marché nsam", "location": {"city": "Figuil", "region": "littoral", "country": "Cameroun"}, "start_date": "07/04/2020", "declared_at": "08/04/2020"}, {"Category": "Meutre", "title": "Suicide de la fille du colonel", "location": {"city": "Bafang", "region": "adamawa", "country": "Cameroun"}, "start_date": "05/08/2020", "declared_at": "06/08/2020"}, {"Category": "Explosions", "title": "Explosion d'un depot de gas Dvan", "location": {"city": "Meiganga", "region": "sud-ouest", "country": "Cameroun"}, "start_date": "18/06/2020", "declared_at": "20/06/2020"}, {"Category": "Vols", "title": "Vol a mains armées à Mvogada", "location": {"city": "Yabassi", "region": "nord", "country": "Cameroun"}, "start_date": "07/09/2020", "declared_at": "07/09/2020"}, {"Category": "Destruction/Dégradation d'installation d'eaux", "title": "Efondrement d'un chateau d'eau à Ngoakele", "location": {"city": "Garoua", "region": "sud-ouest", "country": "Cameroun"}, "start_date": "04/02/2020", "declared_at": "05/02/2020"}, {"Category": "Violence contre civils", "title": "Député molester par des policiers", "location": {"city": "Mbanga", "region": "centre", "country": "Cameroun"}, "start_date": "05/12/2020", "declared_at": "06/12/2020"}, {"Category": "Meutre", "title": "Suicide de la fille du colonel", "location": {"city": "Yabassi", "region": "sud", "country": "Cameroun"}, "start_date": "05/08/2020", "declared_at": "05/08/2020"}, {"Category": "Destruction/Dégradation d'installation d'eaux", "title": "Efondrement d'un chateau d'eau à Ngoakele", "location": {"city": "Fontem", "region": "nord", "country": "Cameroun"}, "start_date": "14/06/2020", "declared_at": "15/06/2020"}, {"Category": "Destruction/Dégradation d'installation d'eaux", "title": "Efondrement d'un chateau d'eau à Ngoakele", "location": {"city": "Ndop", "region": "extreme-nord", "country": "Cameroun"}, "start_date": "08/01/2021", "declared_at": "10/01/2021"}, {"Category": "Meutre", "title": "Suicide de la fille du colonel", "location": {"city": "Yokadouma", "region": "ouest", "country": "Cameroun"}, "start_date": "16/02/2021", "declared_at": "17/02/2021"}, {"Category": "Destruction/Dégradation d'installation d'eaux", "title": "Efondrement d'un chateau d'eau à Ngoakele", "location": {"city": "Manjo", "region": "nord", "country": "Cameroun"}, "start_date": "28/03/2020", "declared_at": "29/03/2020"}, {"Category": "Vols", "title": "Vol a mains armées à Mvogada", "location": {"city": "Kousséri", "region": "centre", "country": "Cameroun"}, "start_date": "15/11/2020", "declared_at": "15/11/2020"}, {"Category": "Vols", "title": "vol à mokolo", "location": {"city": "Mamfé", "region": "extreme-nord", "country": "Cameroun"}, "start_date": "08/08/2020", "declared_at": "10/08/2020"}, {"Category": "Protestations", "title": "17 people were killed in protests following the declaration of independence", "location": {"city": "Guider", "region": "ouest", "country": "Cameroun"}, "start_date": "28/08/2020", "declared_at": "28/08/2020"}, {"Category": "Protestations", "title": "17 people were killed in protests following the declaration of independence", "location": {"city": "Mokolo", "region": "centre", "country": "Cameroun"}, "start_date": "28/01/2020", "declared_at": "30/01/2020"}, {"Category": "Incendie", "title": "Incendie volontaire marché central", "location": {"city": "Mbandjock", "region": "nord-ouest", "country": "Cameroun"}, "start_date": "29/12/2020", "declared_at": "30/12/2020"}, {"Category": "Destruction/Dégradation d'installation d'eaux", "title": "Efondrement d'un chateau d'eau à Ngoakele", "location": {"city": "Bertoua", "region": "littoral", "country": "Cameroun"}, "start_date": "15/12/2020", "declared_at": "15/12/2020"}, {"Category": "Conflits armés", "title": "Taillade à mokolo", "location": {"city": "Bafia", "region": "nord", "country": "Cameroun"}, "start_date": "18/01/2021", "declared_at": "19/01/2021"}, {"Category": "Conflits armés", "title": "Taillade à mokolo", "location": {"city": "Edéa", "region": "littoral", "country": "Cameroun"}, "start_date": "29/08/2020", "declared_at": "31/08/2020"}, {"Category": "trouble à l'ordre publique", "title": "Voyeurisme", "location": {"city": "Garoua-Boulaï", "region": "sud", "country": "Cameroun"}, "start_date": "21/01/2021", "declared_at": "21/01/2021"}, {"Category": "Protestations", "title": "Protestation des étudiants pour leur PBs", "location": {"city": "Maroua", "region": "ouest", "country": "Cameroun"}, "start_date": "21/04/2020", "declared_at": "22/04/2020"}, {"Category": "Accident circulation", "title": "accident de circulation à ngoussou", "location": {"city": "Yagoua", "region": "ouest", "country": "Cameroun"}, "start_date": "05/01/2020", "declared_at": "07/01/2020"}, {"Category": "Destruction/Dégradation d'installation d'eaux", "title": "Efondrement d'un chateau d'eau à Ngoakele", "location": {"city": "Bertoua", "region": "nord", "country": "Cameroun"}, "start_date": "26/04/2020", "declared_at": "27/04/2020"}, {"Category": "Agression", "title": "viol sur mineur", "location": {"city": "Magba", "region": "adamawa", "country": "Cameroun"}, "start_date": "06/10/2020", "declared_at": "06/10/2020"}, {"Category": "Incendie", "title": "Incendie volontaire marché central", "location": {"city": "Kumbo", "region": "nord", "country": "Cameroun"}, "start_date": "19/11/2020", "declared_at": "19/11/2020"}, {"Category": "Destruction/Dégradation d'installation d'eaux", "title": "Panne réseau d'eau", "location": {"city": "Bertoua", "region": "adamawa", "country": "Cameroun"}, "start_date": "18/12/2020", "declared_at": "19/12/2020"}, {"Category": "Destruction/Dégradation d'installation d'eaux", "title": "Panne réseau d'eau", "location": {"city": "Melong", "region": "nord", "country": "Cameroun"}, "start_date": "18/02/2021", "declared_at": "19/02/2021"}, {"Category": "trouble à l'ordre publique", "title": "Voyeurisme", "location": {"city": "Ngaoundéré", "region": "est", "country": "Cameroun"}, "start_date": "10/06/2020", "declared_at": "12/06/2020"}, {"Category": "Incendie", "title": "Incendie volontaire marché central", "location": {"city": "Yaoundé", "region": "centre", "country": "Cameroun"}, "start_date": "17/05/2020", "declared_at": "18/05/2020"}, {"Category": "Meutre", "title": "L’homicide", "location": {"city": "Nkambé", "region": "centre", "country": "Cameroun"}, "start_date": "04/02/2021", "declared_at": "04/02/2021"}, {"Category": "Accident circulation", "title": "accident de circulation à ngoussou", "location": {"city": "Koutaba", "region": "littoral", "country": "Cameroun"}, "start_date": "29/01/2021", "declared_at": "30/01/2021"}, {"Category": "Violence contre civils", "title": "Député molester par des policiers", "location": {"city": "Sangmélima", "region": "ouest", "country": "Cameroun"}, "start_date": "23/03/2021", "declared_at": "24/03/2021"}, {"Category": "Conflits armés", "title": "Attaques térorriste Kumba", "location": {"city": "Tonga", "region": "extreme-nord", "country": "Cameroun"}, "start_date": "16/11/2020", "declared_at": "17/11/2020"}, {"Category": "Explosions", "title": "Explosion bombe artisanale Nsam", "location": {"city": "Yokadouma", "region": "sud", "country": "Cameroun"}, "start_date": "21/04/2020", "declared_at": "21/04/2020"}, {"Category": "trouble à l'ordre publique", "title": "Exhibition sexuelle", "location": {"city": "Tombel", "region": "sud-ouest", "country": "Cameroun"}, "start_date": "18/01/2021", "declared_at": "19/01/2021"}, {"Category": "Agression", "title": "agression à main armé", "location": {"city": "Kumba", "region": "extreme-nord", "country": "Cameroun"}, "start_date": "16/12/2020", "declared_at": "17/12/2020"}, {"Category": "Vols", "title": "vol à mokolo", "location": {"city": "Guider", "region": "nord", "country": "Cameroun"}, "start_date": "08/03/2020", "declared_at": "08/03/2020"}, {"Category": "Destruction/Dégradation d'installations électriques", "title": "Haute tension écrouller au centre ville", "location": {"city": "Meiganga", "region": "adamawa", "country": "Cameroun"}, "start_date": "17/03/2021", "declared_at": "17/03/2021"}, {"Category": "Conflits armés", "title": "Attaques térorriste Kumba", "location": {"city": "Kumbo", "region": "ouest", "country": "Cameroun"}, "start_date": "28/03/2021", "declared_at": "30/03/2021"}, {"Category": "Accident circulation", "title": "accident de circulation à ngoussou", "location": {"city": "Douala", "region": "sud-ouest", "country": "Cameroun"}, "start_date": "27/01/2021", "declared_at": "29/01/2021"}, {"Category": "Violence contre civils", "title": "Député molester par des policiers", "location": {"city": "Dschang", "region": "adamawa", "country": "Cameroun"}, "start_date": "25/02/2020", "declared_at": "26/02/2020"}, {"Category": "Conflits armés", "title": "Attaques térorriste Kumba", "location": {"city": "Garoua-Boulaï", "region": "est", "country": "Cameroun"}, "start_date": "10/04/2020", "declared_at": "11/04/2020"}, {"Category": "Vols", "title": "vol à main armée", "location": {"city": "Batibo", "region": "littoral", "country": "Cameroun"}, "start_date": "04/07/2020", "declared_at": "05/07/2020"}, {"Category": "Agression", "title": "viol sur mineur", "location": {"city": "Bertoua", "region": "est", "country": "Cameroun"}, "start_date": "20/01/2020", "declared_at": "21/01/2020"}, {"Category": "Explosions", "title": "Explosion bombe artisanale Nsam", "location": {"city": "Sangmélima", "region": "adamawa", "country": "Cameroun"}, "start_date": "20/03/2020", "declared_at": "20/03/2020"}, {"Category": "Meutre", "title": "Suicide de la fille du colonel", "location": {"city": "Dschang", "region": "sud-ouest", "country": "Cameroun"}, "start_date": "23/12/2020", "declared_at": "23/12/2020"}, {"Category": "Incendie", "title": "Incendie volontaire", "location": {"city": "Kribi", "region": "nord", "country": "Cameroun"}, "start_date": "07/12/2020", "declared_at": "08/12/2020"}, {"Category": "Agression", "title": "viol sur mineur", "location": {"city": "Maroua", "region": "nord-ouest", "country": "Cameroun"}, "start_date": "04/11/2020", "declared_at": "04/11/2020"}, {"Category": "Destruction/Dégradation d'installation d'eaux", "title": "Efondrement d'un chateau d'eau à Ngoakele", "location": {"city": "Mbanga", "region": "est", "country": "Cameroun"}, "start_date": "23/10/2020", "declared_at": "25/10/2020"}, {"Category": "Accident circulation", "title": "accident de circulation à obala", "location": {"city": "Edéa", "region": "sud-ouest", "country": "Cameroun"}, "start_date": "07/02/2021", "declared_at": "09/02/2021"}, {"Category": "Destruction/Dégradation d'installation d'eaux", "title": "Panne réseau d'eau", "location": {"city": "Maga", "region": "littoral", "country": "Cameroun"}, "start_date": "12/05/2020", "declared_at": "12/05/2020"}, {"Category": "Protestations", "title": "Protestation des étudiants pour leur PBs", "location": {"city": "Maroua", "region": "sud", "country": "Cameroun"}, "start_date": "16/07/2020", "declared_at": "16/07/2020"}, {"Category": "Vols", "title": "vol à main armée", "location": {"city": "Magba", "region": "sud", "country": "Cameroun"}, "start_date": "07/04/2020", "declared_at": "07/04/2020"}, {"Category": "Accident circulation", "title": "Tenor's road accident ", "location": {"city": "Mokolo", "region": "est", "country": "Cameroun"}, "start_date": "04/06/2020", "declared_at": "05/06/2020"}, {"Category": "Violence contre civils", "title": "Député molester par des policiers", "location": {"city": "Bali", "region": "littoral", "country": "Cameroun"}, "start_date": "25/09/2020", "declared_at": "27/09/2020"}, {"Category": "Accident circulation", "title": "accident de circulation à ngoussou", "location": {"city": "Bamenda", "region": "sud-ouest", "country": "Cameroun"}, "start_date": "04/09/2020", "declared_at": "06/09/2020"}, {"Category": "Violence contre civils", "title": "17 people were killed in protests following the declaration of independence", "location": {"city": "Maga", "region": "ouest", "country": "Cameroun"}, "start_date": "19/09/2020", "declared_at": "19/09/2020"}, {"Category": "Destruction/Dégradation d'installations électriques", "title": "Pauteau électrique éfondrer par un camion", "location": {"city": "Tcholliré", "region": "ouest", "country": "Cameroun"}, "start_date": "18/10/2020", "declared_at": "18/10/2020"}, {"Category": "Accident circulation", "title": "accident de circulation à obala", "location": {"city": "Manjo", "region": "est", "country": "Cameroun"}, "start_date": "29/10/2020", "declared_at": "31/10/2020"}, {"Category": "Meutre", "title": "Suicide de la fille du colonel", "location": {"city": "Mbandjock", "region": "ouest", "country": "Cameroun"}, "start_date": "04/08/2020", "declared_at": "05/08/2020"}, {"Category": "Conflits armés", "title": "Taillade à mokolo", "location": {"city": "Tcholliré", "region": "nord", "country": "Cameroun"}, "start_date": "14/01/2021", "declared_at": "15/01/2021"}, {"Category": "Vols", "title": "vol à main armée", "location": {"city": "Tonga", "region": "extreme-nord", "country": "Cameroun"}, "start_date": "13/03/2021", "declared_at": "15/03/2021"}, {"Category": "Agression", "title": "agression à main armé", "location": {"city": "Ngaoundéré", "region": "est", "country": "Cameroun"}, "start_date": "08/08/2020", "declared_at": "09/08/2020"}, {"Category": "Destruction/Dégradation d'installations électriques", "title": "Explosion transformateur à Oyomabang", "location": {"city": "Bafia", "region": "nord", "country": "Cameroun"}, "start_date": "22/02/2020", "declared_at": "24/02/2020"}, {"Category": "Conflits armés", "title": "Attaques térorriste Kumba", "location": {"city": "Bafang", "region": "est", "country": "Cameroun"}, "start_date": "15/08/2020", "declared_at": "16/08/2020"}, {"Category": "Meutre", "title": "L’homicide", "location": {"city": "Figuil", "region": "adamawa", "country": "Cameroun"}, "start_date": "10/04/2020", "declared_at": "11/04/2020"}, {"Category": "Explosions", "title": "Explosion bombe artisanale Nsam", "location": {"city": "Nkoteng", "region": "sud-ouest", "country": "Cameroun"}, "start_date": "29/11/2020", "declared_at": "29/11/2020"}, {"Category": "Accident circulation", "title": "accident de circulation à ngoussou", "location": {"city": "Guidiguis", "region": "littoral", "country": "Cameroun"}, "start_date": "14/07/2020", "declared_at": "16/07/2020"}, {"Category": "trouble à l'ordre publique", "title": "Exhibition sexuelle", "location": {"city": "Nkongsamba", "region": "nord", "country": "Cameroun"}, "start_date": "21/07/2020", "declared_at": "22/07/2020"}, {"Category": "Destruction/Dégradation d'installations électriques", "title": "Explosion transformateur à Oyomabang", "location": {"city": "Gazawa", "region": "extreme-nord", "country": "Cameroun"}, "start_date": "01/01/2020", "declared_at": "02/01/2020"}, {"Category": "Agression", "title": "viol sur mineur", "location": {"city": "Fundong", "region": "adamawa", "country": "Cameroun"}, "start_date": "16/03/2020", "declared_at": "17/03/2020"}, {"Category": "Accident circulation", "title": "accident de circulation à ngoussou", "location": {"city": "Mbouda", "region": "est", "country": "Cameroun"}, "start_date": "02/01/2020", "declared_at": "02/01/2020"}, {"Category": "Violence contre civils", "title": "Député molester par des policiers", "location": {"city": "Guidiguis", "region": "extreme-nord", "country": "Cameroun"}, "start_date": "10/05/2020", "declared_at": "10/05/2020"}, {"Category": "Protestations", "title": "17 people were killed in protests following the declaration of independence", "location": {"city": "Guidiguis", "region": "adamawa", "country": "Cameroun"}, "start_date": "26/02/2021", "declared_at": "28/02/2021"}, {"Category": "Vols", "title": "vol à mokolo", "location": {"city": "Yagoua", "region": "extreme-nord", "country": "Cameroun"}, "start_date": "08/03/2021", "declared_at": "10/03/2021"}, {"Category": "Violence contre civils", "title": "17 people were killed in protests following the declaration of independence", "location": {"city": "Garoua-Boulaï", "region": "sud-ouest", "country": "Cameroun"}, "start_date": "23/04/2020", "declared_at": "23/04/2020"}, {"Category": "Vols", "title": "vol à main armée", "location": {"city": "Nkoteng", "region": "littoral", "country": "Cameroun"}, "start_date": "22/11/2020", "declared_at": "22/11/2020"}, {"Category": "Explosions", "title": "Explosion d'un depot de gas Dvan", "location": {"city": "Tiko", "region": "ouest", "country": "Cameroun"}, "start_date": "05/07/2020", "declared_at": "05/07/2020"}, {"Category": "Protestations", "title": "17 people were killed in protests following the declaration of independence", "location": {"city": "Tombel", "region": "ouest", "country": "Cameroun"}, "start_date": "11/11/2020", "declared_at": "11/11/2020"}, {"Category": "Accident circulation", "title": "accident de circulation à ngoussou", "location": {"city": "Nanga-Eboko", "region": "sud", "country": "Cameroun"}, "start_date": "03/04/2020", "declared_at": "05/04/2020"}, {"Category": "Destruction/Dégradation d'installations électriques", "title": "Haute tension écrouller au centre ville", "location": {"city": "Eséka", "region": "nord-ouest", "country": "Cameroun"}, "start_date": "12/07/2020", "declared_at": "14/07/2020"}, {"Category": "Protestations", "title": "Protestation des étudiants pour leur PBs", "location": {"city": "Muyuka", "region": "ouest", "country": "Cameroun"}, "start_date": "15/10/2020", "declared_at": "16/10/2020"}, {"Category": "Protestations", "title": "Protestation des étudiants pour leur PBs", "location": {"city": "Fontem", "region": "est", "country": "Cameroun"}, "start_date": "18/03/2021", "declared_at": "19/03/2021"}, {"Category": "Meutre", "title": "L’homicide", "location": {"city": "Bogo", "region": "ouest", "country": "Cameroun"}, "start_date": "13/01/2021", "declared_at": "13/01/2021"}, {"Category": "Protestations", "title": "17 people were killed in protests following the declaration of independence", "location": {"city": "Batouri", "region": "est", "country": "Cameroun"}, "start_date": "31/07/2020", "declared_at": "01/08/2020"}, {"Category": "trouble à l'ordre publique", "title": "Exhibition sexuelle", "location": {"city": "Bafia", "region": "nord", "country": "Cameroun"}, "start_date": "31/01/2021", "declared_at": "02/02/2021"}, {"Category": "trouble à l'ordre publique", "title": "Abus de biens sociaux", "location": {"city": "Bogo", "region": "est", "country": "Cameroun"}, "start_date": "12/01/2021", "declared_at": "12/01/2021"}, {"Category": "Meutre", "title": "L’homicide", "location": {"city": "Tombel", "region": "adamawa", "country": "Cameroun"}, "start_date": "10/12/2020", "declared_at": "11/12/2020"}, {"Category": "Explosions", "title": "Explosion d'un depot de gas Dvan", "location": {"city": "Foumbot", "region": "littoral", "country": "Cameroun"}, "start_date": "09/08/2020", "declared_at": "09/08/2020"}, {"Category": "Destruction/Dégradation d'installation d'eaux", "title": "Efondrement d'un chateau d'eau à Ngoakele", "location": {"city": "Yabassi", "region": "sud-ouest", "country": "Cameroun"}, "start_date": "27/02/2021", "declared_at": "01/03/2021"}, {"Category": "Meutre", "title": "L’homicide", "location": {"city": "Bali", "region": "sud-ouest", "country": "Cameroun"}, "start_date": "02/11/2020", "declared_at": "04/11/2020"}, {"Category": "trouble à l'ordre publique", "title": "Voyeurisme", "location": {"city": "Melong", "region": "nord", "country": "Cameroun"}, "start_date": "28/01/2021", "declared_at": "29/01/2021"}, {"Category": "Agression", "title": "agression à main armé", "location": {"city": "Koutaba", "region": "extreme-nord", "country": "Cameroun"}, "start_date": "14/01/2021", "declared_at": "14/01/2021"}, {"Category": "Destruction/Dégradation d'installation d'eaux", "title": "Efondrement d'un chateau d'eau à Ngoakele", "location": {"city": "Foumban", "region": "sud", "country": "Cameroun"}, "start_date": "20/07/2020", "declared_at": "22/07/2020"}, {"Category": "Agression", "title": "viol sur mineur", "location": {"city": "Muyuka", "region": "littoral", "country": "Cameroun"}, "start_date": "21/08/2020", "declared_at": "21/08/2020"}, {"Category": "trouble à l'ordre publique", "title": "Voyeurisme", "location": {"city": "Bertoua", "region": "sud", "country": "Cameroun"}, "start_date": "16/10/2020", "declared_at": "18/10/2020"}, {"Category": "Destruction/Dégradation d'installation d'eaux", "title": "Efondrement d'un chateau d'eau à Ngoakele", "location": {"city": "Tibati", "region": "nord", "country": "Cameroun"}, "start_date": "23/08/2020", "declared_at": "24/08/2020"}, {"Category": "Meutre", "title": "L’homicide", "location": {"city": "Fundong", "region": "sud", "country": "Cameroun"}, "start_date": "12/10/2020", "declared_at": "12/10/2020"}, {"Category": "Accident circulation", "title": "accident de circulation à ngoussou", "location": {"city": "Wum", "region": "nord", "country": "Cameroun"}, "start_date": "01/11/2020", "declared_at": "03/11/2020"}, {"Category": "Accident circulation", "title": "accident de circulation à ngoussou", "location": {"city": "Yagoua", "region": "littoral", "country": "Cameroun"}, "start_date": "23/02/2021", "declared_at": "24/02/2021"}, {"Category": "Accident circulation", "title": "Tenor's road accident ", "location": {"city": "Sangmélima", "region": "sud", "country": "Cameroun"}, "start_date": "16/02/2020", "declared_at": "18/02/2020"}, {"Category": "Agression", "title": "agression à main armé", "location": {"city": "Yabassi", "region": "sud-ouest", "country": "Cameroun"}, "start_date": "14/07/2020", "declared_at": "16/07/2020"}, {"Category": "Vols", "title": "Vol a mains armées à Mvogada", "location": {"city": "Yabassi", "region": "nord", "country": "Cameroun"}, "start_date": "04/04/2020", "declared_at": "05/04/2020"}, {"Category": "Accident circulation", "title": "accident de circulation à ngoussou", "location": {"city": "Fundong", "region": "sud-ouest", "country": "Cameroun"}, "start_date": "25/12/2020", "declared_at": "26/12/2020"}, {"Category": "Conflits armés", "title": "Taillade à mokolo", "location": {"city": "Maga", "region": "littoral", "country": "Cameroun"}, "start_date": "17/01/2021", "declared_at": "17/01/2021"}, {"Category": "Incendie", "title": "Incendie marché nsam", "location": {"city": "Batouri", "region": "littoral", "country": "Cameroun"}, "start_date": "25/01/2020", "declared_at": "27/01/2020"}, {"Category": "Destruction/Dégradation d'installation d'eaux", "title": "Efondrement d'un chateau d'eau à Ngoakele", "location": {"city": "Fundong", "region": "est", "country": "Cameroun"}, "start_date": "09/07/2020", "declared_at": "09/07/2020"}, {"Category": "Destruction/Dégradation d'installation d'eaux", "title": "Panne réseau d'eau", "location": {"city": "Nkongsamba", "region": "nord", "country": "Cameroun"}, "start_date": "26/10/2020", "declared_at": "26/10/2020"}, {"Category": "trouble à l'ordre publique", "title": "Voyeurisme", "location": {"city": "Meiganga", "region": "extreme-nord", "country": "Cameroun"}, "start_date": "29/02/2020", "declared_at": "01/03/2020"}, {"Category": "Conflits armés", "title": "Attaques térorriste Kumba", "location": {"city": "Mokolo", "region": "nord-ouest", "country": "Cameroun"}, "start_date": "11/01/2021", "declared_at": "13/01/2021"}, {"Category": "Agression", "title": "agression à main armé", "location": {"city": "Fontem", "region": "ouest", "country": "Cameroun"}, "start_date": "05/05/2020", "declared_at": "05/05/2020"}, {"Category": "Incendie", "title": "Incendie géant à Nkolmeseng", "location": {"city": "Tcholliré", "region": "extreme-nord", "country": "Cameroun"}, "start_date": "06/09/2020", "declared_at": "07/09/2020"}, {"Category": "Violence contre civils", "title": "17 people were killed in protests following the declaration of independence", "location": {"city": "Ngaoundal", "region": "centre", "country": "Cameroun"}, "start_date": "22/10/2020", "declared_at": "24/10/2020"}, {"Category": "trouble à l'ordre publique", "title": "Voyeurisme", "location": {"city": "Wum", "region": "est", "country": "Cameroun"}, "start_date": "12/02/2020", "declared_at": "14/02/2020"}, {"Category": "Explosions", "title": "Explosion bombe artisanale Nsam", "location": {"city": "Abong-Mbang", "region": "est", "country": "Cameroun"}, "start_date": "19/06/2020", "declared_at": "20/06/2020"}, {"Category": "Explosions", "title": "Explosion bombe artisanale Nsam", "location": {"city": "Muyuka", "region": "sud-ouest", "country": "Cameroun"}, "start_date": "06/02/2020", "declared_at": "08/02/2020"}, {"Category": "Violence contre civils", "title": "Député molester par des policiers", "location": {"city": "Mamfé", "region": "adamawa", "country": "Cameroun"}, "start_date": "02/03/2020", "declared_at": "02/03/2020"}, {"Category": "Protestations", "title": "Protestation des étudiants pour leur PBs", "location": {"city": "Fundong", "region": "sud", "country": "Cameroun"}, "start_date": "24/02/2021", "declared_at": "25/02/2021"}, {"Category": "Protestations", "title": "17 people were killed in protests following the declaration of independence", "location": {"city": "Bangangté", "region": "adamawa", "country": "Cameroun"}, "start_date": "15/10/2020", "declared_at": "15/10/2020"}, {"Category": "Destruction/Dégradation d'installations électriques", "title": "Haute tension écrouller au centre ville", "location": {"city": "Mora", "region": "littoral", "country": "Cameroun"}, "start_date": "28/12/2020", "declared_at": "30/12/2020"}, {"Category": "Explosions", "title": "Explosion d'un depot de gas Dvan", "location": {"city": "Yokadouma", "region": "extreme-nord", "country": "Cameroun"}, "start_date": "04/11/2020", "declared_at": "05/11/2020"}, {"Category": "Incendie", "title": "Incendie marché nsam", "location": {"city": "Tibati", "region": "nord-ouest", "country": "Cameroun"}, "start_date": "05/06/2020", "declared_at": "06/06/2020"}, {"Category": "Conflits armés", "title": "Taillade à mokolo", "location": {"city": "Bélabo", "region": "sud", "country": "Cameroun"}, "start_date": "09/01/2020", "declared_at": "11/01/2020"}, {"Category": "Meutre", "title": "L’homicide", "location": {"city": "Tombel", "region": "est", "country": "Cameroun"}, "start_date": "12/02/2020", "declared_at": "12/02/2020"}, {"Category": "Protestations", "title": "17 people were killed in protests following the declaration of independence", "location": {"city": "Banyo", "region": "adamawa", "country": "Cameroun"}, "start_date": "27/07/2020", "declared_at": "28/07/2020"}, {"Category": "trouble à l'ordre publique", "title": "Voyeurisme", "location": {"city": "Manjo", "region": "adamawa", "country": "Cameroun"}, "start_date": "12/10/2020", "declared_at": "14/10/2020"}, {"Category": "Destruction/Dégradation d'installations électriques", "title": "Pauteau électrique éfondrer par un camion", "location": {"city": "Yagoua", "region": "sud-ouest", "country": "Cameroun"}, "start_date": "21/05/2020", "declared_at": "22/05/2020"}, {"Category": "Explosions", "title": "Explosion bombe artisanale Nsam", "location": {"city": "Mokolo", "region": "adamawa", "country": "Cameroun"}, "start_date": "16/03/2021", "declared_at": "17/03/2021"}, {"Category": "Protestations", "title": "17 people were killed in protests following the declaration of independence", "location": {"city": "Koutaba", "region": "adamawa", "country": "Cameroun"}, "start_date": "02/01/2020", "declared_at": "03/01/2020"}, {"Category": "Accident circulation", "title": "accident de circulation à ngoussou", "location": {"city": "Batibo", "region": "nord-ouest", "country": "Cameroun"}, "start_date": "31/01/2020", "declared_at": "01/02/2020"}, {"Category": "Conflits armés", "title": "Taillade à mokolo", "location": {"city": "Kribi", "region": "extreme-nord", "country": "Cameroun"}, "start_date": "14/09/2020", "declared_at": "15/09/2020"}, {"Category": "Meutre", "title": "L’homicide", "location": {"city": "Bélabo", "region": "ouest", "country": "Cameroun"}, "start_date": "25/11/2020", "declared_at": "27/11/2020"}, {"Category": "Explosions", "title": "Explosion bombe artisanale Nsam", "location": {"city": "Kumbo", "region": "extreme-nord", "country": "Cameroun"}, "start_date": "30/11/2020", "declared_at": "02/12/2020"}, {"Category": "Incendie", "title": "Incendie volontaire", "location": {"city": "Akonolinga", "region": "extreme-nord", "country": "Cameroun"}, "start_date": "26/06/2020", "declared_at": "26/06/2020"}, {"Category": "Destruction/Dégradation d'installations électriques", "title": "Explosion transformateur à Oyomabang", "location": {"city": "Kumbo", "region": "centre", "country": "Cameroun"}, "start_date": "25/10/2020", "declared_at": "26/10/2020"}, {"Category": "Conflits armés", "title": "Attaques térorriste Kumba", "location": {"city": "Guidiguis", "region": "sud", "country": "Cameroun"}, "start_date": "02/10/2020", "declared_at": "03/10/2020"}, {"Category": "trouble à l'ordre publique", "title": "Voyeurisme", "location": {"city": "Sangmélima", "region": "littoral", "country": "Cameroun"}, "start_date": "06/03/2021", "declared_at": "08/03/2021"}, {"Category": "Agression", "title": "agression à main armé", "location": {"city": "Magba", "region": "ouest", "country": "Cameroun"}, "start_date": "30/01/2020", "declared_at": "30/01/2020"}, {"Category": "Violence contre civils", "title": "Député molester par des policiers", "location": {"city": "Bamenda", "region": "nord", "country": "Cameroun"}, "start_date": "01/01/2021", "declared_at": "03/01/2021"}, {"Category": "Protestations", "title": "Protestation des étudiants pour leur PBs", "location": {"city": "Mokolo", "region": "est", "country": "Cameroun"}, "start_date": "23/02/2020", "declared_at": "23/02/2020"}, {"Category": "Destruction/Dégradation d'installation d'eaux", "title": "Efondrement d'un chateau d'eau à Ngoakele", "location": {"city": "Ndop", "region": "sud-ouest", "country": "Cameroun"}, "start_date": "15/03/2020", "declared_at": "16/03/2020"}, {"Category": "Conflits armés", "title": "Attaques térorriste Kumba", "location": {"city": "Dschang", "region": "littoral", "country": "Cameroun"}, "start_date": "06/01/2021", "declared_at": "06/01/2021"}, {"Category": "Agression", "title": "agression à main armé", "location": {"city": "Obala", "region": "nord", "country": "Cameroun"}, "start_date": "24/02/2020", "declared_at": "26/02/2020"}, {"Category": "Destruction/Dégradation d'installations électriques", "title": "Explosion transformateur à Oyomabang", "location": {"city": "Dschang", "region": "adamawa", "country": "Cameroun"}, "start_date": "03/03/2021", "declared_at": "04/03/2021"}, {"Category": "Incendie", "title": "Incendie marché nsam", "location": {"city": "Bangangté", "region": "sud", "country": "Cameroun"}, "start_date": "11/07/2020", "declared_at": "13/07/2020"}, {"Category": "Destruction/Dégradation d'installations électriques", "title": "Haute tension écrouller au centre ville", "location": {"city": "Fontem", "region": "extreme-nord", "country": "Cameroun"}, "start_date": "13/06/2020", "declared_at": "15/06/2020"}, {"Category": "Meutre", "title": "L’homicide", "location": {"city": "Abong-Mbang", "region": "nord-ouest", "country": "Cameroun"}, "start_date": "23/10/2020", "declared_at": "25/10/2020"}, {"Category": "Incendie", "title": "Incendie géant à Nkolmeseng", "location": {"city": "Abong-Mbang", "region": "littoral", "country": "Cameroun"}, "start_date": "02/10/2020", "declared_at": "02/10/2020"}, {"Category": "Vols", "title": "vol à mokolo", "location": {"city": "Maga", "region": "centre", "country": "Cameroun"}, "start_date": "23/03/2020", "declared_at": "23/03/2020"}, {"Category": "Protestations", "title": "Protestation des étudiants pour leur PBs", "location": {"city": "Muyuka", "region": "sud-ouest", "country": "Cameroun"}, "start_date": "23/11/2020", "declared_at": "25/11/2020"}, {"Category": "Destruction/Dégradation d'installations électriques", "title": "Pauteau électrique éfondrer par un camion", "location": {"city": "Yokadouma", "region": "ouest", "country": "Cameroun"}, "start_date": "10/08/2020", "declared_at": "10/08/2020"}, {"Category": "Explosions", "title": "Explosion bombe artisanale Nsam", "location": {"city": "Yaoundé", "region": "centre", "country": "Cameroun"}, "start_date": "15/09/2020", "declared_at": "15/09/2020"}, {"Category": "Agression", "title": "viol sur mineur", "location": {"city": "Tcholliré", "region": "littoral", "country": "Cameroun"}, "start_date": "10/07/2020", "declared_at": "10/07/2020"}, {"Category": "Agression", "title": "viol sur mineur", "location": {"city": "Yagoua", "region": "centre", "country": "Cameroun"}, "start_date": "04/07/2020", "declared_at": "05/07/2020"}, {"Category": "Incendie", "title": "Incendie géant à Nkolmeseng", "location": {"city": "Kékem", "region": "littoral", "country": "Cameroun"}, "start_date": "28/10/2020", "declared_at": "30/10/2020"}, {"Category": "Explosions", "title": "Explosion bombe artisanale Nsam", "location": {"city": "Foumbot", "region": "adamawa", "country": "Cameroun"}, "start_date": "20/09/2020", "declared_at": "22/09/2020"}, {"Category": "Destruction/Dégradation d'installations électriques", "title": "Haute tension écrouller au centre ville", "location": {"city": "Tcholliré", "region": "littoral", "country": "Cameroun"}, "start_date": "13/01/2021", "declared_at": "15/01/2021"}, {"Category": "Conflits armés", "title": "Taillade à mokolo", "location": {"city": "Maga", "region": "adamawa", "country": "Cameroun"}, "start_date": "06/03/2021", "declared_at": "07/03/2021"}, {"Category": "Vols", "title": "Vol a mains armées à Mvogada", "location": {"city": "Batouri", "region": "est", "country": "Cameroun"}, "start_date": "02/03/2020", "declared_at": "03/03/2020"}, {"Category": "Violence contre civils", "title": "Député molester par des policiers", "location": {"city": "Bogo", "region": "est", "country": "Cameroun"}, "start_date": "12/09/2020", "declared_at": "13/09/2020"}, {"Category": "Destruction/Dégradation d'installations électriques", "title": "Haute tension écrouller au centre ville", "location": {"city": "Batouri", "region": "sud", "country": "Cameroun"}, "start_date": "31/08/2020", "declared_at": "01/09/2020"}, {"Category": "Agression", "title": "agression à main armé", "location": {"city": "Guidiguis", "region": "sud-ouest", "country": "Cameroun"}, "start_date": "29/09/2020", "declared_at": "30/09/2020"}, {"Category": "Agression", "title": "agression à main armé", "location": {"city": "Mbalmayo", "region": "sud-ouest", "country": "Cameroun"}, "start_date": "01/01/2020", "declared_at": "02/01/2020"}, {"Category": "Incendie", "title": "Incendie géant à Nkolmeseng", "location": {"city": "Kribi", "region": "sud-ouest", "country": "Cameroun"}, "start_date": "10/09/2020", "declared_at": "12/09/2020"}, {"Category": "Protestations", "title": "17 people were killed in protests following the declaration of independence", "location": {"city": "Koutaba", "region": "centre", "country": "Cameroun"}, "start_date": "24/11/2020", "declared_at": "26/11/2020"}, {"Category": "Meutre", "title": "L’homicide", "location": {"city": "Maga", "region": "littoral", "country": "Cameroun"}, "start_date": "22/12/2020", "declared_at": "24/12/2020"}, {"Category": "Protestations", "title": "17 people were killed in protests following the declaration of independence", "location": {"city": "Nanga-Eboko", "region": "est", "country": "Cameroun"}, "start_date": "08/03/2020", "declared_at": "09/03/2020"}, {"Category": "Conflits armés", "title": "Attaques térorriste Kumba", "location": {"city": "Mamfé", "region": "centre", "country": "Cameroun"}, "start_date": "25/03/2021", "declared_at": "26/03/2021"}, {"Category": "Incendie", "title": "Incendie volontaire", "location": {"city": "Loum", "region": "nord-ouest", "country": "Cameroun"}, "start_date": "19/10/2020", "declared_at": "21/10/2020"}, {"Category": "Conflits armés", "title": "Attaques térorriste Kumba", "location": {"city": "Batibo", "region": "extreme-nord", "country": "Cameroun"}, "start_date": "09/01/2021", "declared_at": "10/01/2021"}, {"Category": "Vols", "title": "vol à main armée", "location": {"city": "Kumbo", "region": "centre", "country": "Cameroun"}, "start_date": "10/07/2020", "declared_at": "12/07/2020"}, {"Category": "Incendie", "title": "Incendie marché nsam", "location": {"city": "Bélabo", "region": "centre", "country": "Cameroun"}, "start_date": "01/07/2020", "declared_at": "02/07/2020"}, {"Category": "Explosions", "title": "Explosion d'un depot de gas Dvan", "location": {"city": "Tonga", "region": "littoral", "country": "Cameroun"}, "start_date": "05/09/2020", "declared_at": "05/09/2020"}, {"Category": "Conflits armés", "title": "Taillade à mokolo", "location": {"city": "Mbanga", "region": "littoral", "country": "Cameroun"}, "start_date": "12/05/2020", "declared_at": "14/05/2020"}, {"Category": "trouble à l'ordre publique", "title": "Voyeurisme", "location": {"city": "Ebolowa", "region": "extreme-nord", "country": "Cameroun"}, "start_date": "10/04/2020", "declared_at": "11/04/2020"}, {"Category": "Destruction/Dégradation d'installations électriques", "title": "Pauteau électrique éfondrer par un camion", "location": {"city": "Loum", "region": "nord", "country": "Cameroun"}, "start_date": "26/07/2020", "declared_at": "27/07/2020"}, {"Category": "Conflits armés", "title": "Attaques térorriste Kumba", "location": {"city": "Edéa", "region": "est", "country": "Cameroun"}, "start_date": "21/12/2020", "declared_at": "22/12/2020"}, {"Category": "Explosions", "title": "Explosion d'un depot de gas Dvan", "location": {"city": "Tibati", "region": "centre", "country": "Cameroun"}, "start_date": "29/03/2021", "declared_at": "30/03/2021"}, {"Category": "Explosions", "title": "Explosion bombe artisanale Nsam", "location": {"city": "Bogo", "region": "ouest", "country": "Cameroun"}, "start_date": "27/04/2020", "declared_at": "27/04/2020"}, {"Category": "trouble à l'ordre publique", "title": "Voyeurisme", "location": {"city": "Bafang", "region": "ouest", "country": "Cameroun"}, "start_date": "21/05/2020", "declared_at": "23/05/2020"}, {"Category": "Violence contre civils", "title": "17 people were killed in protests following the declaration of independence", "location": {"city": "Bogo", "region": "est", "country": "Cameroun"}, "start_date": "10/03/2020", "declared_at": "12/03/2020"}, {"Category": "Destruction/Dégradation d'installations électriques", "title": "Haute tension écrouller au centre ville", "location": {"city": "Bangangté", "region": "nord", "country": "Cameroun"}, "start_date": "16/01/2020", "declared_at": "18/01/2020"}]