[{"Category": "Vols", "title": "Vol a mains armées à Mvogada", "location": {"city": "Batibo", "country": "Cameroun"}, "start_date": "03/13/2020", "declared_at": "03/15/2020"}, {"Category": "trouble à l'ordre publique", "title": "Voyeurisme", "location": {"city": "Kousséri", "country": "Cameroun"}, "start_date": "01/10/2020", "declared_at": "01/12/2020"}, {"Category": "Destruction/Dégradation d'installation d'eaux", "title": "Panne réseau d'eau", "location": {"city": "Mbandjock", "country": "Cameroun"}, "start_date": "11/13/2020", "declared_at": "11/15/2020"}, {"Category": "Protestations", "title": "17 people were killed in protests following the declaration of independence", "location": {"city": "Figuil", "country": "Cameroun"}, "start_date": "10/07/2020", "declared_at": "10/09/2020"}, {"Category": "Violence contre civils", "title": "Député molester par des policiers", "location": {"city": "Batibo", "country": "Cameroun"}, "start_date": "02/18/2020", "declared_at": "02/20/2020"}, {"Category": "Incendie", "title": "Incendie volontaire marché central", "location": {"city": "Banyo", "country": "Cameroun"}, "start_date": "03/16/2021", "declared_at": "03/18/2021"}, {"Category": "Violence contre civils", "title": "17 people were killed in protests following the declaration of independence", "location": {"city": "Mbandjock", "country": "Cameroun"}, "start_date": "03/29/2020", "declared_at": "03/30/2020"}, {"Category": "Explosions", "title": "Explosion bombe artisanale Nsam", "location": {"city": "Gazawa", "country": "Cameroun"}, "start_date": "04/10/2020", "declared_at": "04/10/2020"}, {"Category": "Meutre", "title": "Suicide de la fille du colonel", "location": {"city": "Banyo", "country": "Cameroun"}, "start_date": "07/21/2020", "declared_at": "07/23/2020"}, {"Category": "Protestations", "title": "Protestation des étudiants pour leur PBs", "location": {"city": "Ngaoundal", "country": "Cameroun"}, "start_date": "09/27/2020", "declared_at": "09/28/2020"}]